City_ID,City,Lat,Lng,Max Temp,Humidity,Cloudiness,Wind Speed,Country,Date
0,port-aux-francais,-49.35,70.2167,4.62,90,100,14.54,TF,1694743439
1,adamstown,-25.066,-130.1015,18.7,63,100,11.64,PN,1694743440
2,qaqortoq,60.7167,-46.0333,6.16,86,100,2.93,GL,1694743440
3,iskateley,67.6803,53.1512,6.44,94,100,5.59,RU,1694743440
4,iqaluit,63.7506,-68.5145,0.85,93,75,3.09,CA,1694743214
5,hammerfest,70.6634,23.6821,5.25,87,75,1.03,NO,1694743441
6,edinburgh of the seven seas,-37.0676,-12.3116,10.64,58,27,0.47,SH,1694743441
7,natal,-5.795,-35.2094,24.36,94,75,3.6,BR,1694743223
8,waitangi,-43.9535,-176.5597,12.68,81,15,6.26,NZ,1694743442
9,georgetown,5.4112,100.3354,29.97,87,20,2.06,MY,1694743442
10,constantia,44.1833,28.65,18.38,70,99,5.64,RO,1694743442
11,egilsstadir,65.2653,-14.3948,3.95,93,100,2.57,IS,1694743443
12,smidovich,48.6,133.8167,15.33,78,93,4.34,RU,1694743443
13,ushuaia,-54.8,-68.3,0.81,75,20,1.54,AR,1694743323
14,codrington,-38.2667,141.9667,17.75,58,88,5.75,AU,1694743444
15,bredasdorp,-34.5322,20.0403,11.5,68,100,7.01,ZA,1694743444
16,puerto berrio,6.4916,-74.4033,25.41,90,100,1.06,CO,1694743303
17,avarua,-21.2078,-159.775,26.03,69,14,7.2,CK,1694743181
18,bardai,11.65,7.2333,20.5,85,100,2.86,NG,1694743446
19,ottawa,45.4112,-75.6981,13.46,89,20,2.06,CA,1694742973
20,cabugao,17.7931,120.4578,29.94,71,93,1.07,PH,1694743446
21,puerto penasco,31.3167,-113.5333,30.26,49,0,2.65,MX,1694743447
22,bethel,41.3712,-73.414,17.58,79,16,3.25,US,1694743307
23,grytviken,-54.2811,-36.5092,-4.51,97,75,1.47,GS,1694743447
24,westport,41.1415,-73.3579,21.01,74,2,1.79,US,1694743206
25,ribeira grande,38.5167,-28.7,22.1,94,100,2.24,PT,1694743448
26,klyuchi,52.2667,79.1667,12.64,76,83,3.08,RU,1694743448
27,ranot,7.7777,100.3213,28.59,65,95,4.66,TH,1694743448
28,albany,42.6001,-73.9662,14.14,73,0,0.89,US,1694743298
29,bubaque,11.2833,-15.8333,27.73,80,98,3.45,GW,1694743449
30,tiksi,71.6872,128.8694,1.45,99,100,0.74,RU,1694743449
31,port elizabeth,-33.918,25.5701,10.16,81,0,1.54,ZA,1694743450
32,goure,13.9835,10.2704,27.49,59,99,4.14,NE,1694743450
33,bilibino,68.0546,166.4372,6.94,56,80,1.37,RU,1694743450
34,lebu,-37.6167,-73.65,12.51,98,100,3.99,CL,1694743450
35,chiredzi,-21.05,31.6667,18.11,67,0,0.9,ZW,1694743451
36,cantaura,9.3057,-64.3584,27.01,59,78,0.86,VE,1694743451
37,puerto natales,-51.7236,-72.4875,1.34,99,100,1.48,CL,1694743451
38,vila franca do campo,37.7167,-25.4333,23.82,99,100,2.8,PT,1694743452
39,kralendijk,12.15,-68.2667,29.99,84,81,6.69,BQ,1694743452
40,yellowknife,62.456,-114.3525,12.45,93,75,1.03,CA,1694743453
41,college,64.8569,-147.8028,12.89,79,75,3.6,US,1694743201
42,santa cruz,-17.8,-63.1667,21.7,56,75,2.06,BO,1694743453
43,storozhevaya,43.8789,41.4514,8.85,69,0,2.76,RU,1694743453
44,itoman,26.1247,127.6694,32.43,71,40,4.12,JP,1694743453
45,puerto ayora,-0.7393,-90.3518,23.08,90,81,3.13,EC,1694743454
46,benghazi,32.1167,20.0667,24.28,67,0,4.34,LY,1694743454
47,buritis,-15.6178,-46.4233,26.84,40,42,1.84,BR,1694743454
48,west island,-12.1568,96.8225,25.99,69,40,7.2,CC,1694743291
49,chonchi,-42.6128,-73.8092,11.56,97,100,5.28,CL,1694743455
50,chibougamau,49.9168,-74.3659,9.79,93,100,2.06,CA,1694743455
51,labin,45.095,14.1197,18.96,82,100,3.45,HR,1694743455
52,heroica guaymas,27.9333,-110.9,33.27,55,0,3.09,MX,1694743455
53,taulaga,-11.0553,-171.0883,28.17,72,10,3.96,AS,1694743456
54,kargasok,59.0556,80.8572,12.16,81,93,0.97,RU,1694743456
55,margaret river,-33.95,115.0667,16.7,74,100,7.61,AU,1694743456
56,hawaiian paradise park,19.5933,-154.9731,28.18,78,75,5.66,US,1694743457
57,berdigestyakh,62.0989,126.6992,3.04,98,100,2.41,RU,1694743457
58,bechar,31.6167,-2.2167,19.18,77,100,5.66,DZ,1694743314
59,tolanaro,-25.0319,46.9987,21.04,88,20,8.23,MG,1694743457
60,kavieng,-2.5744,150.7967,28.12,76,94,4.84,PG,1694743458
61,shkoder,42.0683,19.5126,19.1,80,49,1.72,AL,1694743458
62,necochea,-38.5473,-58.7368,14.12,51,100,8.06,AR,1694743213
63,hamilton,39.1834,-84.5333,19.47,69,0,4.12,US,1694743066
64,vilyuchinsk,52.9306,158.4028,16.15,54,100,5.61,RU,1694743459
65,poxoreo,-15.8372,-54.3892,21.18,78,69,1.37,BR,1694743459
66,tura,25.5198,90.2201,26.58,81,29,2.36,IN,1694743459
67,wailua homesteads,22.0669,-159.378,26.53,78,75,6.69,US,1694743459
68,keflavik,64.0049,-22.5624,7.24,100,0,2.06,IS,1694743460
69,al bawiti,28.3492,28.8659,20.81,72,0,3.21,EG,1694743460
70,altai,46.3722,96.2583,7.66,52,18,2.35,MN,1694743460
71,isafjordur,66.0755,-23.124,6.39,68,13,1.81,IS,1694743460
72,mhamid,29.82,-5.72,24.09,56,87,5.81,MA,1694743461
73,talnakh,69.4865,88.3972,4.56,84,100,5.91,RU,1694743461
74,badger,64.8,-147.5333,12.85,70,75,0.0,US,1694743461
75,port hedland,-20.3167,118.5667,30.03,39,1,1.03,AU,1694743183
76,strezhevoy,60.7333,77.5889,14.98,73,94,1.79,RU,1694743462
77,whitehorse,60.7161,-135.0538,8.78,73,100,6.17,CA,1694743462
78,baqubah,33.7485,44.6554,26.9,16,0,2.97,IQ,1694743462
79,anadyr,64.75,177.4833,5.28,93,75,1.0,RU,1694743463
80,kosciusko,33.0576,-89.5876,20.23,55,100,2.24,US,1694743463
81,namtsy,62.7161,129.6658,6.6,66,46,3.7,RU,1694743463
82,santa marta de ortigueira,43.6833,-7.85,19.79,77,0,1.68,ES,1694743463
83,port lincoln,-34.7333,135.8667,17.7,56,6,4.53,AU,1694743397
84,punta arenas,-53.15,-70.9167,2.06,75,0,2.57,CL,1694743464
85,invercargill,-46.4,168.35,10.01,72,92,8.05,NZ,1694743464
86,maceio,-9.6658,-35.7353,23.69,100,75,1.03,BR,1694743217
87,nogliki,51.8333,143.1667,18.24,57,37,5.46,RU,1694743465
88,petropavlovsk-kamchatsky,53.0452,158.6483,15.33,44,20,4.0,RU,1694743465
89,susuman,62.7833,148.1667,5.46,61,99,1.59,RU,1694743465
90,boende,-0.2167,20.8667,21.62,96,84,0.72,CD,1694743465
91,east london,-33.0153,27.9116,14.53,77,56,3.43,ZA,1694743466
92,vorgashor,67.5833,63.95,10.21,94,100,2.91,RU,1694743466
93,dawei,14.0833,98.2,24.76,97,100,5.07,MM,1694743466
94,bunia,1.5667,30.25,16.42,97,100,1.21,CD,1694743466
95,dudinka,69.4058,86.1778,4.79,79,100,4.4,RU,1694743467
96,khandyga,62.6667,135.6,6.6,77,100,2.01,RU,1694743467
97,ola,59.5833,151.2833,9.69,69,3,3.56,RU,1694743467
98,bundaberg,-24.85,152.35,25.68,47,11,1.34,AU,1694743468
99,nyrob,60.733,56.7202,8.89,95,52,1.0,RU,1694743468
100,pisco,-13.7,-76.2167,18.03,77,75,6.69,PE,1694743468
101,olonkinbyen,70.9221,-8.7187,5.13,80,100,3.36,SJ,1694743469
102,kuopio,62.8924,27.677,7.9,87,0,3.09,FI,1694743469
103,astrakhan,46.3497,48.0408,13.93,93,6,3.13,RU,1694743231
104,kabare,-2.4683,28.8242,16.46,89,65,0.55,CD,1694743469
105,sangli,16.8544,74.5642,21.91,89,100,3.85,IN,1694743470
106,pathein,16.7833,94.7333,27.98,83,100,3.27,MM,1694743470
107,dongobesh,-4.0667,35.3833,10.93,88,15,3.01,TZ,1694743470
108,blackmans bay,-43.0167,147.3167,19.07,49,48,5.02,AU,1694743470
109,nova sintra,14.8667,-24.7167,24.61,78,32,3.87,CV,1694743471
110,as sulayyil,20.4607,45.5779,28.14,14,6,2.46,SA,1694743471
111,kidal,18.4411,1.4078,32.41,33,61,2.82,ML,1694743471
112,puerto deseado,-47.7503,-65.8938,6.66,86,100,7.22,AR,1694743471
113,karratha,-20.7377,116.8463,28.88,26,0,0.35,AU,1694743472
114,ubari,26.5921,12.7805,23.84,24,0,3.98,LY,1694743472
115,buala,-8.145,159.5921,27.9,77,100,1.89,SB,1694743472
116,ondangwa,-17.9167,15.95,21.0,18,0,3.09,NA,1694743472
117,alofi,-19.0595,-169.9187,26.94,61,40,5.66,NU,1694743328
118,ust-nera,64.5667,143.2,5.5,71,97,2.91,RU,1694743473
119,puerto baquerizo moreno,-0.9,-89.6,22.95,79,98,6.84,EC,1694743473
120,hermanus,-34.4187,19.2345,16.0,75,82,15.25,ZA,1694743473
121,renfrew,55.872,-4.3925,11.4,89,100,1.54,GB,1694743474
122,port mathurin,-19.6833,63.4167,22.97,70,100,7.02,MU,1694743474
123,camana,-16.6228,-72.7111,17.52,83,53,2.06,PE,1694743474
124,outjo,-20.1167,16.15,17.9,12,0,2.68,NA,1694743474
125,lastoursville,-0.8143,12.7287,22.87,97,100,1.24,GA,1694743475
126,beaugency,47.7802,1.6271,13.93,76,1,2.37,FR,1694743475
127,namibe,-15.1961,12.1522,16.1,94,20,1.39,AO,1694743475
128,fort mcmurray,56.7268,-111.381,18.77,48,0,4.63,CA,1694743387
129,utrik,11.2278,169.8474,28.57,77,100,6.05,MH,1694743476
130,katsuura,35.1333,140.3,29.09,76,99,2.02,JP,1694743476
131,fort bragg,35.139,-79.006,23.61,73,0,3.6,US,1694743476
132,udachny,66.4167,112.4,8.88,93,100,9.11,RU,1694743476
133,tazovsky,67.4667,78.7,8.63,85,94,3.17,RU,1694743477
134,techiman,7.5862,-1.9414,21.32,99,87,1.88,GH,1694743477
135,papatowai,-46.5619,169.4708,8.6,73,85,7.83,NZ,1694743477
136,nainpur,22.4333,80.1167,23.31,98,100,3.29,IN,1694743477
137,kodinsk,58.6881,99.1844,13.02,55,5,0.48,RU,1694743478
138,mukalla,14.5425,49.1242,29.03,78,60,1.58,YE,1694743292
139,san antonio de pale,-1.4014,5.6325,23.64,84,81,4.91,GQ,1694743300
140,salekhard,66.53,66.6019,11.41,88,5,3.39,RU,1694743478
141,rongelap,11.1635,166.8941,28.65,77,30,6.36,MH,1694743478
142,yemva,62.59,50.8594,9.74,89,18,2.79,RU,1694743479
143,newman,37.3138,-121.0208,32.13,48,0,3.2,US,1694743479
144,xilin hot,43.9667,116.0333,24.3,40,100,7.42,CN,1694743479
145,lagos,6.5833,3.75,26.18,97,100,1.0,NG,1694743263
146,shenjiamen,29.9576,122.298,26.85,76,89,0.75,CN,1694743480
147,ad douiem,14.0012,32.3116,30.03,50,52,5.95,SD,1694743480
148,ilulissat,69.2167,-51.1,4.01,70,100,7.2,GL,1694743480
149,kartuzy,54.3342,18.1974,12.6,95,45,1.03,PL,1694743480
150,tsiombe,-25.3,45.4833,17.92,91,0,3.03,MG,1694743481
151,cruzeiro do sul,-29.5128,-51.9853,10.29,90,13,1.71,BR,1694743344
152,galle,6.0367,80.217,26.46,82,55,1.4,LK,1694743481
153,kirishi,59.4471,32.0205,10.38,90,100,2.92,RU,1694743481
154,kiama,-34.6833,150.8667,28.58,47,92,3.13,AU,1694743476
155,hualien city,23.9769,121.6044,32.41,58,10,2.54,TW,1694743211
156,saint-philippe,-21.3585,55.7679,19.77,79,37,4.43,RE,1694743482
157,kununurra,-15.7667,128.7333,32.99,24,29,5.14,AU,1694743483
158,longyearbyen,78.2186,15.6401,1.91,87,75,9.26,SJ,1694743483
159,flying fish cove,-10.4217,105.6791,25.82,73,40,7.72,CX,1694743483
160,mirnyy,62.5353,113.9611,9.1,83,100,5.19,RU,1694743483
161,cannonvale,-20.2833,148.7,20.66,53,0,8.98,AU,1694743484
162,queenstown,-31.8976,26.8753,13.17,16,82,4.29,ZA,1694743484
163,remire-montjoly,4.9167,-52.2667,28.02,83,0,1.54,GF,1694743484
164,tulun,54.5611,100.5792,13.94,52,10,1.49,RU,1694743484
165,thompson,55.7435,-97.8558,12.09,100,100,3.6,CA,1694743485
166,okhotsk,59.3833,143.3,11.47,54,38,3.6,RU,1694743485
167,bandarbeyla,9.4942,50.8122,25.85,76,90,8.65,SO,1694743485
168,ta`u,-14.2336,-169.5144,26.65,78,92,8.05,AS,1694743486
169,junagarh,19.8667,82.9333,24.07,92,100,2.96,IN,1694743486
170,sandnessjoen,66.0217,12.6316,2.29,62,100,7.51,NO,1694743486
171,calvinia,-31.4707,19.776,5.72,83,66,2.83,ZA,1694743486
172,haiku-pauwela,20.9219,-156.3051,27.32,73,75,8.75,US,1694743486
173,jamestown,42.097,-79.2353,11.8,84,0,2.06,US,1694743319
174,margate,51.3813,1.3862,17.61,78,7,1.79,GB,1694743211
175,axim,4.8699,-2.2405,23.99,94,98,3.07,GH,1694743487
176,xiaoweizhai,26.1903,107.5125,23.05,72,18,2.37,CN,1694743488
177,mount gambier,-37.8333,140.7667,17.48,53,5,5.76,AU,1694743488
178,fortuna,40.5982,-124.1573,16.63,91,0,4.12,US,1694743488
179,targu secuiesc,46.0,26.1333,16.01,85,100,1.16,RO,1694743488
180,manta,-0.95,-80.7333,24.88,78,75,5.66,EC,1694743489
181,kroya,-7.6331,109.2461,26.96,65,17,5.12,ID,1694743489
182,cuenca,-2.8833,-78.9833,16.07,63,75,3.6,EC,1694743489
183,hovd,48.0056,91.6419,11.59,36,1,1.34,MN,1694743490
184,itaituba,-4.2761,-55.9836,25.35,33,0,0.84,BR,1694743490
185,kodiak,57.79,-152.4072,10.73,66,75,0.0,US,1694743490
186,chul'man,56.8479,124.9104,3.53,90,98,5.08,RU,1694743490
187,port macquarie,-31.4333,152.9167,24.94,42,100,4.82,AU,1694743271
188,nema,57.5067,50.5011,11.48,75,79,1.79,RU,1694743491
189,kayangel,8.0823,134.7173,27.61,78,86,0.95,PW,1694743491
190,zaozersk,69.4005,32.4476,2.82,86,47,1.48,RU,1694743491
191,alice springs,-23.7,133.8833,28.75,10,0,2.06,AU,1694743492
192,dois corregos,-22.3661,-48.3803,14.04,92,96,0.76,BR,1694743492
193,horta,38.5333,-28.6333,21.68,94,100,2.24,PT,1694743492
194,ancud,-41.8697,-73.8203,11.24,95,100,14.23,CL,1694743217
195,uniao da vitoria,-26.23,-51.0864,6.3,91,2,0.75,BR,1694743492
196,chernyshevskiy,63.0128,112.4714,8.6,84,100,5.2,RU,1694743493
197,kavaratti,10.5669,72.642,27.38,79,100,5.39,IN,1694743493
198,cimitarra,6.3142,-73.9497,24.43,95,100,3.43,CO,1694743493
199,khor,47.8861,134.9464,21.05,60,12,5.56,RU,1694743494
200,shache,38.4167,77.2406,23.74,22,0,2.83,CN,1694743494
201,shira,54.4911,89.9531,11.56,78,81,1.98,RU,1694743494
202,saiha,22.4833,92.9667,23.17,92,99,0.81,IN,1694743494
203,stanley,54.868,-1.6985,12.1,93,75,0.0,GB,1694743461
204,brokopondo,4.75,-55.1667,26.8,70,74,5.09,SR,1694743336
205,kristiansund,63.1115,7.732,11.36,76,100,2.06,NO,1694743495
206,anloga,5.7947,0.8973,24.87,90,100,4.95,GH,1694743495
207,tucuma,-0.1833,-50.05,24.74,89,2,2.7,BR,1694743285
208,mahibadhoo,3.7833,72.9667,28.08,79,96,4.0,MV,1694743321
209,nar'yan-mar,67.6713,53.087,6.5,94,100,5.45,RU,1694743496
210,lionel town,17.8101,-77.2406,30.94,75,56,0.91,JM,1694743497
211,ivdel',60.6911,60.4206,9.04,91,24,1.0,RU,1694743497
212,mahdia,35.5047,11.0622,24.97,65,100,3.47,TN,1694743304
213,nemuro,43.3236,145.575,16.44,87,97,6.39,JP,1694743497
214,lander,42.833,-108.7307,14.76,67,0,2.57,US,1694743498
215,coquimbo,-29.9533,-71.3436,14.85,72,0,2.06,CL,1694743396
216,la passe,45.5549,-0.8967,17.21,72,0,3.41,FR,1694743498
217,ko lanta,7.5336,99.0865,27.2,79,100,3.47,TH,1694743498
218,ribeira brava,32.65,-17.0667,23.35,71,46,2.6,PT,1694743499
219,tralee,52.2704,-9.7026,11.12,96,100,2.0,IE,1694743499
220,mehran,33.1222,46.1646,28.45,9,0,3.22,IR,1694743499
221,manokwari,-0.8667,134.0833,25.93,84,100,3.15,ID,1694743499
222,port isabel,26.0734,-97.2086,30.04,77,0,7.2,US,1694743500
223,sinjai,-5.1241,120.253,29.51,57,39,4.46,ID,1694743500
224,san fernando de apure,7.8878,-67.4724,23.58,96,58,1.22,VE,1694743500
225,atafu village,-8.5421,-172.5159,28.53,73,6,3.89,TK,1694743500
226,labytnangi,66.6572,66.4183,11.53,91,6,2.27,RU,1694743500
227,saipan,15.1355,145.701,31.39,74,75,6.17,MP,1694743501
228,fountain hills,33.6117,-111.7174,35.12,26,0,2.06,US,1694743488
229,vilyuysk,63.7553,121.6247,4.51,96,100,3.47,RU,1694743501
230,veraval,20.9,70.3667,27.04,82,39,2.95,IN,1694743502
231,yakeshi,49.2833,120.7333,12.8,74,100,2.63,CN,1694743502
232,lihue,21.9789,-159.3672,26.87,78,75,6.69,US,1694743502
233,enewetak,11.3474,162.3373,29.09,73,39,4.58,MH,1694743502
234,faya-largeau,17.9257,19.1043,32.33,21,40,7.41,TD,1694743503
235,nova vicosa,-17.8919,-39.3719,23.97,88,0,7.19,BR,1694743380
236,quellon,-43.1167,-73.6167,12.14,94,100,6.17,CL,1694743303
237,tazacorte,28.629,-17.9293,23.54,73,75,7.2,ES,1694743503
238,sao joao da barra,-21.6403,-41.0511,21.68,87,98,8.27,BR,1694743408
239,rodolfo sanchez taboada,31.7167,-116.5667,20.06,74,1,1.79,MX,1694743504
240,pontianak,-0.0333,109.3333,27.99,83,20,1.03,ID,1694743504
241,inari,68.906,27.0288,-0.89,91,22,1.39,FI,1694743392
242,nuuk,64.1835,-51.7216,3.82,81,100,6.71,GL,1694743505
243,uyuni,-20.4597,-66.825,6.6,14,3,3.64,BO,1694743505
244,carnarvon,-24.8667,113.6333,20.78,60,1,4.68,AU,1694743505
245,tamasi,46.6333,18.2833,15.42,86,73,0.78,HU,1694743506
246,sinabang,2.4803,96.3801,27.65,81,100,4.57,ID,1694743507
247,paracale,14.2804,122.7881,29.81,71,94,1.22,PH,1694743507
248,pocatello,42.8713,-112.4455,19.95,35,0,4.02,US,1694743507
249,nizhneangarsk,55.7833,109.55,12.03,56,27,2.25,RU,1694743508
250,colac,-38.3333,143.5833,16.76,53,65,5.1,AU,1694743508
251,vadso,70.0744,29.7487,2.09,87,43,4.12,NO,1694743509
252,francisco sa,-16.4758,-43.4883,29.08,33,89,1.33,BR,1694743509
253,basco,20.4487,121.9702,28.55,73,87,2.5,PH,1694743509
254,banda aceh,5.5577,95.3222,27.37,75,100,0.79,ID,1694743509
255,piacabucu,-10.4056,-36.4344,22.99,87,10,3.01,BR,1694743347
256,bayanaul,50.7889,75.6956,10.11,91,60,2.54,KZ,1694743510
257,kone,-21.0595,164.8658,18.41,93,100,3.49,NC,1694743511
258,nagornyy,52.7959,83.5498,11.52,84,100,1.43,RU,1694743511
259,st. john's,47.5649,-52.7093,17.86,98,100,7.2,CA,1694742780
260,manaquiri,-3.3167,-60.35,31.25,35,11,1.97,BR,1694743511
261,sitka,57.0531,-135.33,11.94,87,100,3.09,US,1694743511
262,la sarre,48.8002,-79.1996,8.52,78,9,2.15,CA,1694743341
263,ketchikan,55.3422,-131.6461,12.26,94,100,7.2,US,1694743512
264,kingston,17.997,-76.7936,30.53,74,75,4.63,JM,1694743097
265,laascaanood,8.4774,47.3597,23.02,69,100,9.19,SO,1694743513
266,new norfolk,-42.7826,147.0587,19.72,46,49,5.17,AU,1694743513
267,mil'kovo,55.6078,37.7956,12.41,65,54,2.16,RU,1694743513
268,priargunsk,50.3691,119.1012,15.3,43,99,5.58,RU,1694743514
269,aykhal,66.0,111.5,8.27,90,100,10.84,RU,1694743514
270,miandrivazo,-19.5167,45.4667,23.39,61,0,1.66,MG,1694743514
271,kuressaare,58.2481,22.5039,9.97,95,12,2.06,EE,1694743515
272,kourou,5.1552,-52.6478,28.03,86,1,3.17,GF,1694743230
273,sciacca,37.5082,13.0881,23.91,73,40,0.53,IT,1694743515
274,dwarka,22.2394,68.9678,28.07,75,92,3.9,IN,1694743515
275,mascote,-15.5631,-39.3025,20.91,97,10,1.5,BR,1694743516
276,chalus,36.655,51.4204,19.7,94,100,1.03,IR,1694743516
277,luganville,-15.5333,167.1667,26.77,76,63,1.29,VU,1694743516
278,ciudad lazaro cardenas,17.9583,-102.2,27.92,84,14,1.27,MX,1694743517
279,kampot,10.6167,104.1833,26.03,86,100,3.89,KH,1694743517
280,sao vicente,-23.9631,-46.3919,19.1,86,100,0.62,BR,1694743517
281,islamkot,24.6997,70.177,28.22,65,98,4.47,PK,1694743518
282,antofagasta,-23.65,-70.4,15.6,73,36,1.55,CL,1694743518
283,kasongo-lunda,-6.4667,16.8167,23.94,65,64,0.34,CD,1694743518
284,blythe,33.6103,-114.5964,36.25,16,0,0.0,US,1694743518
285,san jose,37.3394,-121.895,25.38,68,20,5.81,US,1694743443
286,madang,-5.2246,145.7966,28.97,71,100,2.8,PG,1694743519
287,villa huidobro,-34.8383,-64.5869,15.08,29,49,3.51,AR,1694743519
288,caribou,46.8606,-68.012,13.04,86,0,2.57,US,1694743519
289,hun,29.1268,15.9477,20.89,51,0,3.23,LY,1694743520
290,arkalyk,50.2486,66.9114,11.89,73,87,1.22,KZ,1694743520
291,hami,42.8,93.45,21.79,24,98,3.53,CN,1694743520
292,tangalle,6.024,80.7911,24.09,79,83,2.83,LK,1694743520
293,hadibu,12.65,54.0333,26.38,82,36,7.67,YE,1694743521
294,nouadhibou,20.931,-17.0347,22.99,73,1,8.23,MR,1694743521
295,wau,7.7029,27.9953,21.54,97,100,2.34,SS,1694743521
296,pangody,65.85,74.4859,13.2,83,87,1.52,RU,1694743521
297,serhetabat,35.2799,62.3438,16.76,40,0,2.11,TM,1694743522
298,crane,31.3974,-102.3501,28.41,40,16,5.53,US,1694743522
299,san luis de la loma,17.2706,-100.8939,27.94,84,53,1.51,MX,1694743522
300,chhatak,25.0333,91.6667,29.13,74,46,1.3,BD,1694743522
301,sterling,39.0062,-77.4286,20.76,65,0,2.57,US,1694743225
302,aitape,-3.1374,142.3475,26.5,83,100,0.96,PG,1694743523
303,altamira,-3.2033,-52.2064,25.35,64,0,1.63,BR,1694743286
304,topeka,39.0483,-95.678,21.94,53,0,0.0,US,1694743523
305,nguigmi,14.2495,13.1092,28.99,61,100,4.96,NE,1694743523
306,todiresti,47.3167,26.8333,16.38,95,93,2.59,RO,1694743524
307,castillos,-34.1667,-53.8333,7.17,87,44,2.05,UY,1694743524
308,sao tome,0.3365,6.7273,26.02,83,75,4.12,ST,1694743337
309,mantua,45.1667,10.7833,20.75,86,100,2.68,IT,1694743524
310,igurusi,-8.85,33.85,15.63,69,0,1.41,TZ,1694743525
311,cabo san lucas,22.8909,-109.9124,31.45,74,0,2.57,MX,1694743525
312,molina,-35.1167,-71.2833,13.85,77,90,2.06,CL,1694743525
313,cestos city,5.46,-9.5828,24.9,90,99,3.16,LR,1694743525
314,arvika,59.6553,12.5852,10.34,89,100,2.34,SE,1694743526
315,praia da vitoria,38.7333,-27.0667,22.14,88,75,5.0,PT,1694743526
316,lompoc,34.6391,-120.4579,19.88,89,100,3.09,US,1694743526
317,malvan,16.0667,73.4667,25.82,87,100,1.67,IN,1694743526
318,east aurora,42.7678,-78.6134,13.55,81,0,1.29,US,1694743527
319,al ghayzah,16.2079,52.176,26.32,85,13,0.87,YE,1694743527
320,weno,7.4515,151.8468,31.97,74,75,3.09,FM,1694743527
321,palmer,42.1584,-72.3287,16.65,79,40,2.57,US,1694743527
322,tucumcari,35.1717,-103.725,19.97,83,55,8.25,US,1694743528
323,bom jesus da lapa,-13.255,-43.4181,27.91,27,2,2.92,BR,1694743319
324,burang,30.25,81.1667,10.17,73,94,1.58,CN,1694743528
325,sabang,5.8933,95.3214,28.12,72,100,1.88,ID,1694743528
326,marsa alam,25.0757,34.8918,28.73,51,0,4.34,EG,1694743529
327,flin flon,54.7682,-101.865,12.03,91,97,3.04,CA,1694743529
328,luderitz,-26.6481,15.1594,12.17,75,1,5.35,NA,1694743529
329,papao,-17.75,-149.55,24.82,88,100,9.51,PF,1694743529
330,acapulco de juarez,16.8634,-99.8901,28.34,83,100,1.6,MX,1694742734
331,ayr,55.4627,-4.6339,11.29,87,20,2.06,GB,1694743530
332,bhum,18.4667,75.6667,22.99,81,100,4.45,IN,1694743530
333,beipiao,41.7919,120.7792,25.77,40,0,5.97,CN,1694743530
334,uturoa,-16.7333,-151.4333,24.27,84,100,7.47,PF,1694743531
335,sinop,41.7711,34.8709,12.27,60,0,3.7,TR,1694743531
336,yuzhno-kurilsk,44.0306,145.8556,16.98,85,92,5.12,RU,1694743531
337,okha,53.5739,142.9478,16.87,51,16,2.28,RU,1694743531
338,titao,13.7667,-2.0667,28.12,62,23,5.19,BF,1694743532
339,mournies,35.4764,24.0092,20.22,73,20,0.0,GR,1694743532
340,taoudenni,22.6783,-3.9836,35.74,17,5,1.6,ML,1694743532
341,indramayu,-6.3264,108.32,29.21,50,4,4.91,ID,1694743532
342,bel ombre,-4.6167,55.4167,26.91,78,40,9.26,SC,1694743533
343,malango,-2.9627,119.9001,26.44,60,65,2.2,ID,1694743533
344,manicore,-5.8092,-61.3003,26.68,43,2,0.85,BR,1694743533
345,island harbour,50.724,-1.2758,12.77,93,5,1.87,GB,1694743533
346,ballina,-28.8667,153.5667,22.66,58,44,3.02,AU,1694743534
347,urzhar,47.093,81.6294,12.94,55,37,0.16,KZ,1694743534
348,wahiawa,21.5028,-158.0236,28.2,71,100,4.12,US,1694743534
349,sorong,-0.8833,131.25,26.7,80,100,1.6,ID,1694743534
350,nikki,9.9401,3.2108,22.25,95,100,1.45,BJ,1694743535
351,belyy yar,53.6039,91.3903,8.94,93,40,1.0,RU,1694743535
352,port alfred,-33.5906,26.891,13.84,74,100,4.24,ZA,1694743535
353,selfoss,63.9331,-20.9971,4.47,87,9,1.66,IS,1694743535
354,fale old settlement,-9.3852,-171.2468,28.43,72,10,3.26,TK,1694743536
355,la ronge,55.1001,-105.2842,13.14,88,100,5.66,CA,1694743398
356,zheshart,62.0731,49.5733,9.1,90,20,2.51,RU,1694743536
357,severo-yeniseyskiy,60.3725,93.0408,9.87,63,24,0.44,RU,1694743536
358,bryukhovetskaya,45.806,38.9996,16.15,53,11,1.69,RU,1694743536
359,isangel,-19.55,169.2667,25.06,83,100,13.89,VU,1694743537
360,mahebourg,-20.4081,57.7,21.16,83,20,2.57,MU,1694743266
361,tambura,5.6,27.4667,20.48,98,100,1.44,SS,1694743537
362,sokcho,38.2083,128.5911,21.34,94,100,3.6,KR,1694743537
363,ghadamis,30.1337,9.5007,26.48,17,53,3.85,LY,1694743538
364,kailua-kona,19.6406,-155.9956,28.98,80,75,4.12,US,1694743538
365,bay city,43.5945,-83.8889,15.53,72,0,1.54,US,1694743132
366,singkil,-7.9855,111.4161,29.01,53,39,4.59,ID,1694743538
367,bozhou,33.8772,115.7703,25.62,63,0,2.11,CN,1694743538
368,salinopolis,-0.6136,-47.3561,25.92,87,14,3.48,BR,1694743539
369,lincheng,19.9078,109.6858,28.08,84,100,2.86,CN,1694743539
370,dalnegorsk,44.5604,135.5701,25.32,32,0,1.45,RU,1694743539
371,carrigaline,51.8117,-8.3986,11.86,100,75,4.63,IE,1694743539
372,goundam,16.4145,-3.6708,32.56,43,72,3.92,ML,1694743540
373,ilhabela,-23.7781,-45.3581,17.24,91,100,1.46,BR,1694743540
374,igarka,67.4667,86.5833,10.45,84,100,5.28,RU,1694743540
375,tosontsengel,48.7567,98.2839,5.77,89,100,1.86,MN,1694743540
376,mount isa,-20.7333,139.5,27.87,21,0,5.66,AU,1694743541
377,arraial do cabo,-22.9661,-42.0278,20.11,92,100,7.33,BR,1694743299
378,ghormach,35.7306,63.7826,18.41,37,0,2.08,AF,1694743541
379,labasa,-16.4167,179.3833,28.82,66,70,5.94,FJ,1694743541
380,howrah,22.5892,88.3103,27.0,94,75,2.57,IN,1694743541
381,uludere,37.445,42.8617,15.88,38,0,2.18,TR,1694743542
382,paka,4.6374,103.4368,28.96,84,20,1.54,MY,1694743542
383,raja,8.4596,25.678,20.94,98,100,1.97,SS,1694743542
384,kerikeri,-35.2268,173.9474,18.28,66,44,1.34,NZ,1694743543
385,north haven,41.3909,-72.8595,18.9,77,0,3.09,US,1694743543
386,ulladulla,-35.35,150.4667,28.2,32,57,2.58,AU,1694743543
387,nadi,-17.8,177.4167,29.0,70,40,5.66,FJ,1694743072
388,atamyrat,37.8357,65.2106,19.49,34,0,4.8,TM,1694743544
389,shklow,54.2108,30.2919,13.53,96,100,4.48,BY,1694743544
390,nasir,15.5894,32.5634,32.26,41,52,5.15,SD,1694743298
391,tual,-5.6667,132.75,25.07,88,100,10.44,ID,1694743545
392,usogorsk,63.4106,48.6872,11.3,83,18,3.95,RU,1694743545
393,labuan,5.2767,115.2417,29.2,79,20,1.54,MY,1694743545
394,robore,-18.3333,-59.75,17.45,61,68,1.64,BO,1694743545
395,opuwo,-18.0607,13.84,20.29,19,0,1.96,NA,1694743546
396,nueva helvecia,-34.3,-57.2333,12.0,60,100,4.82,UY,1694743546
397,tukrah,32.5341,20.5791,23.32,72,0,3.63,LY,1694743546
398,al kharj,24.155,47.3346,32.32,21,3,2.18,SA,1694743546
399,siracusa,37.0881,15.2792,18.65,64,53,1.58,IT,1694743498
400,botou,38.0667,116.5667,25.48,48,0,2.35,CN,1694743547
401,kas,36.2018,29.6377,25.06,33,0,1.92,TR,1694743547
402,san andres,12.5847,-81.7006,30.01,74,20,5.14,CO,1694743547
403,llandudno,53.325,-3.8315,14.89,52,100,1.34,GB,1694743293
404,sabzevar,36.2126,57.6819,19.9,30,18,3.94,IR,1694743548
405,mount pearl,47.5166,-52.7813,17.4,98,100,7.2,CA,1694743548
406,hermiston,45.8404,-119.2895,28.31,35,0,2.57,US,1694743548
407,farafangana,-22.8167,47.8333,20.22,89,86,0.5,MG,1694743549
408,irbit,57.6705,63.071,9.43,81,21,1.2,RU,1694743549
409,sumbe,-11.2061,13.8437,20.83,90,59,3.04,AO,1694743549
410,mhangura,-16.8939,30.1683,14.59,76,0,1.34,ZW,1694743549
411,mrakovo,52.7161,56.6244,9.86,87,21,0.98,RU,1694743550
412,nchelenge,-9.3451,28.734,22.0,50,0,2.3,ZM,1694743550
413,kiunga,-6.1219,141.2906,23.75,81,100,2.19,PG,1694743550
414,bridgewater,44.3835,-64.5155,20.62,98,100,3.09,CA,1694743550
415,saldanha,-33.0117,17.9442,14.03,88,75,9.47,ZA,1694743551
416,kenai,60.5544,-151.2583,11.05,76,0,6.69,US,1694743551
417,touros,-5.1989,-35.4608,24.01,88,7,4.96,BR,1694743394
418,burumburum,11.3911,8.7234,20.3,89,100,3.53,NG,1694743551
419,kyren,51.6828,102.1408,12.35,69,100,0.67,RU,1694743551
420,xai-xai,-25.0519,33.6442,18.04,83,0,5.09,MZ,1694743552
421,tekit,20.5333,-89.3333,27.37,73,39,3.74,MX,1694743552
422,kalianget,-7.05,113.9333,27.93,64,6,5.71,ID,1694743552
423,saint-francois,46.4154,3.9054,12.69,100,0,0.0,FR,1694743552
424,laojunmiao,39.8333,97.7333,15.31,32,0,3.08,CN,1694743553
425,mae chai,19.346,99.814,25.81,84,90,0.97,TH,1694743553
426,gaigeturi,33.4644,126.3183,29.03,70,40,2.06,KR,1694743553
427,khowy,38.5503,44.9521,13.8,72,2,0.77,IR,1694743553
428,santa ana de yacuma,-13.75,-65.4333,24.43,46,46,2.72,BO,1694743554
429,bonthe,7.5264,-12.505,24.99,91,97,2.26,SL,1694743554
430,masterton,-40.9597,175.6575,10.9,68,92,5.18,NZ,1694743554
431,peniche,39.3558,-9.3811,20.72,96,10,3.95,PT,1694743554
432,kemijarvi,66.7131,27.4306,4.25,74,82,0.36,FI,1694743554
433,alindao,5.0267,21.2088,21.09,97,90,1.15,CF,1694743555
434,jalpan,21.2333,-99.4833,27.24,59,93,1.39,MX,1694743555
435,peace river,56.2501,-117.286,19.17,39,75,4.12,CA,1694743555
436,geraldton,-28.7667,114.6,20.23,68,10,1.54,AU,1694743556
437,katima mulilo,-17.5,24.2667,16.75,55,0,1.16,NA,1694743556
438,colares,38.7992,-9.4469,20.82,84,3,8.94,PT,1694743556
439,magadan,59.5667,150.8,9.45,68,4,3.13,RU,1694743309
440,ankang,32.68,109.0172,25.13,68,26,1.12,CN,1694743556
441,ponta delgada,37.7333,-25.6667,23.99,88,40,3.09,PT,1694743557
442,vila velha,-20.3297,-40.2925,23.97,91,40,3.6,BR,1694743557
443,ebon,4.582,168.6964,29.09,67,48,1.18,MH,1694743557
444,mandali,33.7499,45.5541,27.64,12,0,2.68,IQ,1694743557
445,san patricio,28.017,-97.5169,30.97,69,0,6.68,US,1694743558
446,beledweyne,4.7358,45.2036,24.36,76,87,7.87,SO,1694743558
447,serdar,38.9764,56.2757,20.45,31,27,4.2,TM,1694743558
448,bargaal,11.2864,51.0773,26.85,74,24,5.13,SO,1694743558
449,callao,-12.0667,-77.15,18.18,82,100,5.14,PE,1694743559
450,albina,5.5,-54.05,23.72,95,0,1.37,SR,1694743559
451,barcelos,41.5388,-8.6151,23.29,67,37,0.89,PT,1694743559
452,seaford,50.7714,0.1027,14.49,86,8,1.54,GB,1694743104
453,makarov,48.6333,142.8,20.09,56,1,5.7,RU,1694743560
454,cunha,-23.0744,-44.9597,14.62,98,99,1.59,BR,1694743560
455,san juan bautista,-14.0108,-75.7358,17.7,76,8,0.44,PE,1694743560
456,recreo,-29.2818,-65.061,19.25,27,0,7.25,AR,1694743560
457,turaif,31.6725,38.6637,22.14,35,0,4.12,SA,1694743561
458,meadow lake,34.8014,-106.5436,19.39,63,64,2.38,US,1694743561
459,aketi,2.7388,23.7833,20.91,96,98,0.71,CD,1694743561
460,margate city,39.3279,-74.5035,22.21,64,0,5.81,US,1694743561
461,pechory,57.8164,27.6119,8.7,94,12,2.5,RU,1694743562
462,san borja,-14.8167,-66.85,20.31,47,8,1.9,BO,1694743562
463,bondowoso,-7.9135,113.8214,29.57,49,24,1.13,ID,1694743562
464,mushie,-3.0167,16.9,23.43,86,71,0.27,CD,1694743563
465,aasiaat,68.7098,-52.8699,-2.37,95,94,2.48,GL,1694743563
466,mankono,8.0586,-6.1897,21.51,98,90,2.56,CI,1694743563
467,al jubayl,27.0112,49.6583,34.12,55,0,10.52,SA,1694743563
468,padang,-0.9492,100.3543,27.03,76,20,1.06,ID,1694743461
469,beira,-19.8436,34.8389,18.05,100,0,1.54,MZ,1694743564
470,le grau-du-roi,43.5388,4.1356,18.56,82,0,2.06,FR,1694743564
471,aragarcas,-15.8975,-52.2508,25.36,69,0,0.0,BR,1694743292
472,lata,40.1629,-8.3327,18.93,85,61,0.2,PT,1694743565
473,alo,7.4178,6.7371,24.02,96,100,1.24,NG,1694743565
474,ha'il,27.5219,41.6907,28.01,23,0,2.06,SA,1694743565
475,happy valley-goose bay,53.3168,-60.3315,18.17,94,100,3.6,CA,1694743565
476,kapuskasing,49.4169,-82.4331,12.0,76,20,4.12,CA,1694743566
477,leava,-14.3,-178.1667,27.29,78,79,8.94,WF,1694743566
478,portales,34.1862,-103.3344,25.74,76,13,1.46,US,1694743387
479,entebbe,0.0644,32.4469,21.18,88,20,0.0,UG,1694743566
480,majene,-3.5403,118.9707,29.49,63,23,6.95,ID,1694743567
481,villa gesell,-37.2639,-56.973,12.25,62,100,8.56,AR,1694743567
482,porto novo,6.4965,2.6036,24.45,92,99,2.72,BJ,1694743567
483,salym,60.0625,71.4789,11.44,84,35,1.29,RU,1694743568
484,mawu,29.5923,107.3139,25.63,62,3,0.87,CN,1694743568
485,yarmouth,41.7057,-70.2286,21.09,85,0,0.0,US,1694743568
486,horsham,51.064,-0.3272,13.68,88,6,1.03,GB,1694743569
487,boa vista,2.8197,-60.6733,29.99,58,0,1.54,BR,1694743292
488,el calafate,-50.3408,-72.2768,1.0,95,100,2.5,AR,1694743405
489,pierre,44.3683,-100.351,21.27,71,0,3.09,US,1694743397
490,vega de alatorre,20.0333,-96.6333,28.24,80,4,4.84,MX,1694743569
491,hacienda huancane,-15.8222,-70.8856,3.95,26,3,1.43,PE,1694743570
492,tibanbang,6.6315,126.1055,27.73,77,100,1.73,PH,1694743570
493,handan,36.6006,114.4678,25.69,58,0,2.4,CN,1694743570
494,bodaybo,57.8506,114.1933,8.0,91,100,1.96,RU,1694743570
495,quimili,-27.6333,-62.4167,15.12,40,0,5.38,AR,1694743571
496,tromso,69.6496,18.957,4.65,87,40,2.06,NO,1694743571
497,luis correia,-2.8792,-41.6669,26.14,82,13,5.56,BR,1694743534
498,kaa-khem,51.6833,94.7333,11.75,81,100,1.11,RU,1694743571
499,canico,32.6333,-16.85,23.35,80,75,2.06,PT,1694743572
500,avanigadda,16.0215,80.9181,28.86,85,100,1.91,IN,1694743572
501,angel r. cabada,18.5833,-95.4333,26.79,84,5,3.04,MX,1694743572
502,mao,39.8885,4.2658,22.31,88,0,2.06,ES,1694743572
503,pingliang,35.5392,106.6861,21.36,57,19,1.42,CN,1694743573
504,letpandan,17.7833,95.75,25.54,93,100,0.76,MM,1694743573
505,bhimunipatnam,17.8833,83.4333,27.73,76,100,3.34,IN,1694743573
506,lazaro cardenas,17.9583,-102.2,27.92,84,14,1.27,MX,1694743573
507,shubarkuduk,49.1447,56.4872,15.04,55,31,1.62,KZ,1694743574
508,soligalich,59.0778,42.2864,13.79,64,100,2.74,RU,1694743574
509,ar rutbah,33.0381,40.2848,23.73,22,0,2.75,IQ,1694743574
510,lautoka,-17.6167,177.4667,29.92,66,75,3.6,FJ,1694743574
511,arar,30.9753,41.0381,27.01,24,0,2.06,SA,1694743575
512,juneau,58.3019,-134.4197,11.34,95,100,6.17,US,1694743447
513,sao gabriel da cachoeira,-0.1303,-67.0892,25.48,68,53,0.26,BR,1694743575
514,taroudant,30.4703,-8.877,19.02,88,16,0.19,MA,1694743485
515,afaahiti,-17.75,-149.2833,23.93,88,100,8.52,PF,1694743576
516,keila,59.3036,24.4131,9.01,100,20,0.0,EE,1694743576
517,cremona,45.2333,9.9333,21.26,82,100,1.74,IT,1694743576
518,calabozo,8.9242,-67.4293,25.17,90,70,1.05,VE,1694743576
519,celestun,20.8667,-90.4,28.54,79,0,7.27,MX,1694743577
520,kudat,6.8837,116.8477,27.96,83,20,2.24,MY,1694743577
521,thunder bay,48.4001,-89.3168,13.99,82,100,3.09,CA,1694743398
522,howard springs,-12.497,131.047,31.57,38,46,4.23,AU,1694743577
523,abu jibeha,11.4562,31.2285,22.37,84,36,2.7,SD,1694743578
524,filingue,14.3521,3.3168,30.76,54,97,3.65,NE,1694743578
525,hithadhoo,-0.6,73.0833,28.08,76,9,7.55,MV,1694743578
526,kajaani,64.2273,27.7285,-0.97,100,0,1.03,FI,1694743578
527,umba,66.6871,34.3429,6.75,88,100,3.67,RU,1694743578
528,chatham,51.3789,0.5279,15.92,85,8,1.28,GB,1694743579
529,i-n-salah,27.1935,2.4607,30.73,12,0,7.17,DZ,1694743579
530,chissamba,-12.1667,17.3333,20.33,45,32,1.44,AO,1694743579
531,penonome,8.5167,-80.3667,23.01,85,100,3.13,PA,1694743349
532,dalandzadgad,43.5708,104.425,12.77,53,43,4.13,MN,1694743580
533,nuriootpa,-34.4833,139.0,18.76,40,0,5.62,AU,1694743580
534,dryden,49.7833,-92.7503,14.16,100,100,3.09,CA,1694743581
535,sabak bernam,3.7698,100.9879,29.73,64,99,0.53,MY,1694743348
536,colby,39.3958,-101.0524,18.89,76,0,4.12,US,1694743581
537,luchegorsk,46.4764,134.2569,20.03,61,5,4.53,RU,1694743581
538,baiti,13.745,-14.7482,25.38,91,94,3.29,SN,1694743582
539,armacao de buzios,-22.7469,-41.8817,21.03,93,100,6.55,BR,1694743582
540,xinyuan,37.3,99.0,11.25,31,28,1.39,CN,1694743582
541,nizhneudinsk,54.9076,99.0276,13.13,69,6,1.2,RU,1694743582
542,thief river falls,48.1191,-96.1812,15.96,88,40,0.0,US,1694743583
543,gisborne,-38.6533,178.0042,13.59,71,76,5.83,NZ,1694743319
544,pacific grove,36.6177,-121.9166,17.79,90,100,3.13,US,1694743583
545,bataipora,-22.2953,-53.2711,13.57,71,4,2.14,BR,1694743583
546,alcantara,-2.4089,-44.4147,27.11,88,2,3.16,BR,1694743583
547,san julian,21.0167,-102.1667,17.51,42,1,2.48,MX,1694743584
548,simanggang,1.2472,111.4528,26.99,88,20,2.24,MY,1694743584
549,sapele,5.8941,5.6767,23.77,97,100,1.36,NG,1694743584
550,ciudad del carmen,18.6333,-91.8333,29.03,77,52,5.12,MX,1694743298
551,ambovombe,-25.1667,46.0833,17.91,88,0,3.39,MG,1694743585
552,gwanda,-20.9333,29.0,14.38,70,0,2.13,ZW,1694743585
553,sao jose da coroa grande,-8.8978,-35.1478,23.83,84,41,3.37,BR,1694743585
554,forster,-32.1667,152.5167,23.54,47,100,4.16,AU,1694743482
555,mabaruma,8.2,-59.7833,25.57,79,56,2.0,GY,1694743586
556,champerico,14.3,-91.9167,26.67,84,100,4.82,GT,1694743586
557,korla,41.7597,86.1469,22.26,31,9,3.95,CN,1694743519
558,beaufort west,-32.3567,22.583,12.33,28,96,7.46,ZA,1694743586
559,myeik,12.4333,98.6,24.78,96,100,5.11,MM,1694743587
560,ar ruways,24.1103,52.7306,32.22,75,0,4.76,AE,1694743587
561,tafuna,-14.3358,-170.72,26.68,80,56,8.22,AS,1694743587
562,kalaoa,19.7286,-155.9817,26.11,81,75,4.12,US,1694743587
563,port saint john's,-31.6229,29.5448,16.74,87,56,3.48,ZA,1694743588
564,nguekhokh,14.5128,-17.005,27.49,100,20,2.06,SN,1694743588
565,polyarnyye zori,67.3661,32.4981,5.37,83,100,0.84,RU,1694743588
566,nishifukuma,33.7667,130.4667,30.72,80,100,1.69,JP,1694743589
567,ambalangoda,6.2355,80.0538,26.51,82,70,1.95,LK,1694743589
568,miles city,46.4083,-105.8406,21.54,37,75,2.06,US,1694743498
569,aldan,58.6031,125.3894,2.09,99,100,2.83,RU,1694743589
570,thinadhoo,0.5333,72.9333,28.31,78,60,7.85,MV,1694743589
571,mana,5.6592,-53.7767,25.87,89,0,3.77,GF,1694743580
572,gagarin,55.5529,34.9954,10.15,67,100,3.32,RU,1694743336
573,asha,54.9973,57.2722,12.32,92,100,1.34,RU,1694743590
574,minas de marcona,-15.2119,-75.1103,12.51,86,61,5.17,PE,1694743590
575,la foa,-21.7108,165.8276,18.46,94,100,2.34,NC,1694743591
576,bamboo flat,11.7,92.7167,26.05,89,100,1.54,IN,1694743591
577,grenada,37.1882,-3.6067,21.62,78,40,2.06,ES,1694743592
578,mambajao,9.2504,124.7156,28.14,76,95,0.74,PH,1694743592
579,inda silase,14.1031,38.2829,16.26,74,20,1.4,ET,1694743593
580,tofol,5.3248,163.0078,31.88,70,75,1.54,FM,1694743593
